City_ID,City,Lat,Lng,Max Temp,Humidity,Cloudiness,Wind Speed,Country,Date
0,college,64.8569,-147.8028,-2.03,86,75,0.0,US,1698692402
1,utrik,11.2278,169.8474,28.09,80,100,9.22,MH,1698692403
2,hami,42.8,93.45,11.13,41,16,0.39,CN,1698692404
3,iqaluit,63.7506,-68.5145,-10.15,72,75,6.71,CA,1698692406
4,wailua homesteads,22.0669,-159.378,24.86,94,91,1.34,US,1698692408
5,kristiansund,63.1115,7.732,-0.64,80,0,1.54,NO,1698692409
6,luanda,-8.8368,13.2343,26.0,83,40,4.12,AO,1698692410
7,taroa,8.7058,171.2275,28.66,78,98,7.71,MH,1698692412
8,xilin hot,43.9667,116.0333,9.74,37,55,7.55,CN,1698692413
9,odda,60.0691,6.5457,5.98,74,82,3.03,NO,1698692413
10,vorgashor,67.5833,63.95,-13.88,91,100,3.07,RU,1698692414
11,margaret river,-33.95,115.0667,9.06,89,4,4.39,AU,1698692417
12,waitangi,-43.9535,-176.5597,13.23,87,79,4.47,NZ,1698692417
13,fort leonard wood,37.7057,-92.1572,6.21,58,20,3.09,US,1698692419
14,puerto ayora,-0.7393,-90.3518,27.98,89,71,2.24,EC,1698692419
15,klyuchi,52.2667,79.1667,6.35,95,100,3.31,RU,1698692419
16,ola,59.5833,151.2833,-6.95,73,6,2.48,RU,1698692420
17,zaysan,47.4667,84.8667,9.98,90,100,2.1,KZ,1698692420
18,adamstown,-25.066,-130.1015,22.58,76,100,4.54,PN,1698692421
19,grytviken,-54.2811,-36.5092,5.98,80,2,3.54,GS,1698692421
20,asekeyevo,53.5742,52.7972,-0.88,88,100,3.11,RU,1698692421
21,kati,12.7441,-8.0726,28.67,49,84,2.87,ML,1698692422
22,puerto natales,-51.7236,-72.4875,7.25,39,0,3.09,CL,1698692257
23,port-aux-francais,-49.35,70.2167,2.51,83,100,15.71,TF,1698692423
24,atafu village,-8.5421,-172.5159,28.6,76,64,6.44,TK,1698692424
25,port elizabeth,-33.918,25.5701,16.16,75,20,8.23,ZA,1698692286
26,ouadda,8.0777,22.4007,23.83,63,30,1.34,CF,1698692424
27,anadyr,64.75,177.4833,-0.72,100,75,6.0,RU,1698692424
28,punta arenas,-53.15,-70.9167,8.01,49,75,6.69,CL,1698692422
29,sao joao da barra,-21.6403,-41.0511,33.05,85,100,7.46,BR,1698692425
30,san antonio de pale,-1.4014,5.6325,26.62,83,100,5.15,GQ,1698692425
31,clitheroe,53.8667,-2.4,9.51,94,92,6.68,GB,1698692426
32,albany,42.6001,-73.9662,9.8,91,100,0.45,US,1698692406
33,bonny,4.4522,7.1681,26.81,82,91,0.97,NG,1698692426
34,stettler,52.3168,-112.7186,-2.36,80,100,1.54,CA,1698692426
35,el porvenir,13.7617,-87.3458,23.63,82,98,1.41,HN,1698692427
36,bilibino,68.0546,166.4372,-19.15,74,36,1.43,RU,1698692427
37,kodinsk,58.6881,99.1844,-9.63,82,14,1.41,RU,1698692427
38,bredasdorp,-34.5322,20.0403,14.67,73,0,8.71,ZA,1698692428
39,isangel,-19.55,169.2667,20.79,70,20,3.7,VU,1698692428
40,tacna,-18.0056,-70.2483,22.11,53,0,5.14,PE,1698692429
41,anahuac,27.2333,-100.15,8.28,65,100,8.42,MX,1698692429
42,dudinka,69.4058,86.1778,-16.32,97,100,0.89,RU,1698692429
43,yellowknife,62.456,-114.3525,-0.88,88,75,6.71,CA,1698692430
44,anna regina,7.2644,-58.5077,29.93,68,87,4.26,GY,1698692431
45,port lincoln,-34.7333,135.8667,12.4,66,94,6.5,AU,1698692431
46,bethel,41.3712,-73.414,13.3,89,100,2.03,US,1698692431
47,whitehorse,60.7161,-135.0538,1.17,93,75,1.03,CA,1698692432
48,la oroya,-11.5189,-75.8994,18.55,32,95,6.53,PE,1698692432
49,kodiak,57.79,-152.4072,7.73,93,100,4.12,US,1698692433
50,namanga,-2.5433,36.7905,21.17,74,97,4.79,KE,1698692433
51,edinburgh of the seven seas,-37.0676,-12.3116,12.38,87,100,13.22,SH,1698692434
52,tiksi,71.6872,128.8694,-20.43,100,57,1.8,RU,1698692435
53,benemerito de las americas,16.5167,-90.6439,28.41,72,11,0.99,MX,1698692435
54,kirensk,57.7853,108.1119,-7.24,62,97,1.34,RU,1698692436
55,le vauclin,14.5452,-60.8388,31.03,70,75,5.66,MQ,1698692436
56,ketchikan,55.3422,-131.6461,6.99,78,100,0.63,US,1698692436
57,port douglas,-16.4833,145.4667,19.95,82,88,2.53,AU,1698692437
58,quellon,-43.1167,-73.6167,7.12,94,100,1.16,CL,1698692437
59,geraldton,-28.7667,114.6,13.23,76,0,4.12,AU,1698692439
60,aparri,18.3333,121.6167,27.02,77,100,6.89,PH,1698692439
61,west island,-12.1568,96.8225,25.99,83,75,7.72,CC,1698692441
62,fale old settlement,-9.3852,-171.2468,28.71,75,11,6.81,TK,1698692441
63,ampanihy,-24.7,44.75,21.87,77,100,4.04,MG,1698692441
64,port macquarie,-31.4333,152.9167,13.83,63,99,3.0,AU,1698692309
65,mogocha,53.7333,119.7667,-8.96,44,100,0.25,RU,1698692442
66,opuwo,-18.0607,13.84,24.96,12,5,3.85,NA,1698692443
67,iskateley,67.6803,53.1512,-6.66,94,100,6.71,RU,1698692445
68,carnarvon,-24.8667,113.6333,20.32,78,0,10.63,AU,1698692446
69,leesville,31.1435,-93.261,8.9,100,100,4.63,US,1698692410
70,stanley,54.868,-1.6985,7.09,93,40,3.09,GB,1698692165
71,antsiranana,-12.2787,49.2917,25.06,81,100,6.46,MG,1698692447
72,newport,51.5877,-2.9984,12.01,87,20,1.3,GB,1698692447
73,antigonish,45.6169,-61.9986,3.23,92,100,0.45,CA,1698692448
74,invercargill,-46.4,168.35,6.68,96,100,0.45,NZ,1698692442
75,ribeira grande,38.5167,-28.7,19.22,77,75,7.15,PT,1698692448
76,fort mcmurray,56.7268,-111.381,-3.23,63,0,2.57,CA,1698692448
77,murzuq,25.9155,13.9184,24.82,25,0,3.4,LY,1698692448
78,lihue,21.9789,-159.3672,25.2,94,97,3.29,US,1698692449
79,crane,31.3974,-102.3501,4.9,37,100,4.46,US,1698692449
80,tegal,-6.8694,109.1402,26.32,79,100,2.6,ID,1698692450
81,chonchi,-42.6128,-73.8092,10.62,71,90,1.57,CL,1698692450
82,ushuaia,-54.8,-68.3,3.81,64,75,9.26,AR,1698692450
83,taghazout,30.5426,-9.7112,23.43,52,100,1.71,MA,1698692450
84,revda,56.801,59.9303,-7.82,99,90,1.1,RU,1698692450
85,hawaiian paradise park,19.5933,-154.9731,27.66,89,10,0.82,US,1698692451
86,egilsstadir,65.2653,-14.3948,-3.05,86,0,2.06,IS,1698692451
87,aioun,16.6614,-9.6149,33.77,17,71,0.96,MR,1698692451
88,melekeok village,7.4957,134.6367,27.67,78,22,2.96,PW,1698692451
89,la passe,45.5549,-0.8967,14.43,79,22,8.18,FR,1698692451
90,oneonta,42.4529,-75.0638,9.5,99,100,3.54,US,1698692451
91,tura,25.5198,90.2201,19.88,89,100,1.71,IN,1698692452
92,isafjordur,66.0755,-23.124,0.02,86,75,1.03,IS,1698692452
93,genhe,50.7833,121.5167,-5.03,34,100,1.03,CN,1698692452
94,apatity,67.5641,33.4031,-6.86,91,91,2.45,RU,1698692452
95,gaspra,44.4333,34.1,15.71,63,0,2.65,UA,1698692453
96,kapuskasing,49.4169,-82.4331,-0.95,64,40,3.6,CA,1698692453
97,hermanus,-34.4187,19.2345,14.68,73,0,7.33,ZA,1698692453
98,thompson,55.7435,-97.8558,-6.91,73,75,6.69,CA,1698692453
99,udachny,66.4167,112.4,-19.97,100,99,1.43,RU,1698692453
100,mount isa,-20.7333,139.5,21.87,68,18,1.54,AU,1698692454
101,leeton,-34.5667,146.4,10.05,62,2,4.61,AU,1698692454
102,namibe,-15.1961,12.1522,19.23,79,0,2.85,AO,1698692454
103,badger,64.8,-147.5333,-2.07,86,75,0.0,US,1698692454
104,zelenoborskiy,66.845,32.3622,-9.08,92,63,1.67,RU,1698692454
105,santa maria da boa vista,-8.8078,-39.8256,35.9,16,94,3.04,BR,1698692455
106,zag,46.9441,99.165,-1.87,78,100,0.6,MN,1698692455
107,petropavlovsk-kamchatsky,53.0452,158.6483,-0.3,82,75,5.0,RU,1698692456
108,obo,5.3998,26.4869,22.88,88,81,1.57,CF,1698692456
109,nova vicosa,-17.8919,-39.3719,28.02,53,99,4.5,BR,1698692456
110,saipan,15.1355,145.701,28.66,78,11,6.26,MP,1698692456
111,bafq,31.6128,55.4107,22.53,23,100,1.98,IR,1698692457
112,san luis de la loma,17.2706,-100.8939,32.02,65,13,2.61,MX,1698692457
113,brak,27.5496,14.2714,25.2,22,5,3.56,LY,1698692457
114,blackmans bay,-43.0167,147.3167,7.51,72,4,1.34,AU,1698692457
115,keflavik,64.0049,-22.5624,4.24,70,75,5.14,IS,1698692457
116,hithadhoo,-0.6,73.0833,26.81,82,14,5.33,MV,1698692457
117,talnakh,69.4865,88.3972,-16.55,94,100,2.81,RU,1698692458
118,ulladulla,-35.35,150.4667,15.43,52,5,3.83,AU,1698692458
119,saudarkrokur,65.7461,-19.6394,-0.75,81,20,3.11,IS,1698692458
120,mostaganem,35.9311,0.0892,20.21,76,96,5.88,DZ,1698692159
121,villa gesell,-37.2639,-56.973,16.14,47,100,7.6,AR,1698692458
122,tucuma,-0.1833,-50.05,32.24,51,29,5.27,BR,1698692168
123,butterworth,5.3991,100.3638,28.02,89,20,2.68,MY,1698692459
124,mombetsu,44.3525,143.3525,6.91,80,16,3.02,JP,1698692459
125,bel ombre,-4.6167,55.4167,25.91,78,20,1.03,SC,1698692459
126,syumsi,57.1111,51.6149,-2.48,96,100,2.13,RU,1698692459
127,qaqortoq,60.7167,-46.0333,6.33,54,100,12.62,GL,1698692459
128,taltal,-25.4,-70.4833,16.75,77,29,2.57,CL,1698692421
129,minas de marcona,-15.2119,-75.1103,21.79,51,10,8.13,PE,1698692460
130,borkum,53.5809,6.6915,12.75,85,100,2.87,DE,1698692460
131,chongwe,-15.3292,28.682,21.76,69,100,4.1,ZM,1698692461
132,sitka,57.0531,-135.33,8.94,76,100,4.12,US,1698692462
133,sishui,35.6489,117.2758,16.72,54,0,2.11,CN,1698692462
134,lompoc,34.6391,-120.4579,26.5,18,20,2.06,US,1698692219
135,hamilton,39.1834,-84.5333,8.73,84,100,4.92,US,1698692445
136,birniwa,12.7903,10.2348,31.18,16,86,4.59,NG,1698692464
137,yuzhno-kurilsk,44.0306,145.8556,7.99,76,55,3.66,RU,1698692464
138,port mathurin,-19.6833,63.4167,24.87,81,7,8.0,MU,1698692464
139,as sulayyil,20.4607,45.5779,27.14,27,97,5.47,SA,1698692465
140,papatowai,-46.5619,169.4708,8.85,90,100,0.59,NZ,1698692465
141,pandan,14.0453,124.1694,26.16,89,100,4.64,PH,1698692466
142,kostomuksha,64.571,30.5767,-6.3,87,75,1.23,RU,1698692466
143,igarka,67.4667,86.5833,-17.41,96,91,1.42,RU,1698692466
144,burang,30.25,81.1667,-0.16,81,87,1.36,CN,1698692467
145,olonkinbyen,70.9221,-8.7187,1.04,66,100,5.67,SJ,1698692468
146,hasaki,35.7333,140.8333,11.22,60,23,3.74,JP,1698692468
147,arraial do cabo,-22.9661,-42.0278,30.98,62,75,3.6,BR,1698692469
148,reguiba,33.5639,6.7033,30.03,13,100,3.6,DZ,1698692469
149,rio grande,-32.035,-52.0986,21.06,86,100,3.7,BR,1698692469
150,castlegar,49.2998,-117.6689,5.72,34,17,1.15,CA,1698692234
151,oamaru,-45.0784,170.9801,11.32,91,100,2.79,NZ,1698692469
152,suileng,47.25,127.0833,1.76,31,100,3.26,CN,1698692470
153,tshabong,-26.05,22.45,19.59,53,0,10.09,BW,1698692470
154,luderitz,-26.6481,15.1594,18.89,48,0,4.18,NA,1698692470
155,kenora,49.8167,-94.4337,-2.46,86,100,4.63,CA,1698692471
156,ponta delgada,37.7333,-25.6667,18.4,72,20,3.09,PT,1698692435
157,ndele,8.4109,20.6473,25.59,54,8,1.24,CF,1698692471
158,es castell,39.8795,4.2854,20.38,83,20,7.2,ES,1698692471
159,phan thiet,10.9333,108.1,25.36,87,99,2.01,VN,1698692472
160,vadso,70.0744,29.7487,-1.91,86,75,5.66,NO,1698692472
161,yanchep,-31.55,115.6833,15.07,58,88,7.15,AU,1698692472
162,hobyo,5.3505,48.5268,25.96,81,100,4.13,SO,1698692473
163,suva,-18.1416,178.4415,24.71,100,75,1.54,FJ,1698692473
164,dalandzadgad,43.5708,104.425,6.42,65,2,2.14,MN,1698692473
165,nemuro,43.3236,145.575,9.45,80,6,4.29,JP,1698692473
166,buka,40.8108,69.1986,18.92,38,100,1.53,UZ,1698692473
167,fisterra,42.9049,-9.2629,16.12,73,12,8.72,ES,1698692474
168,itoman,26.1247,127.6694,22.43,73,20,2.57,JP,1698692474
169,puerto madryn,-42.7692,-65.0385,12.49,40,95,8.27,AR,1698692474
170,tamanrasset,22.785,5.5228,26.95,13,40,2.06,DZ,1698692474
171,enewetak,11.3474,162.3373,28.69,78,100,8.7,MH,1698692475
172,kotido,2.9806,34.1331,21.66,76,100,5.98,UG,1698692475
173,cabo san lucas,22.8909,-109.9124,30.9,62,0,3.22,MX,1698692429
174,kampung tanjung karang,3.4242,101.1849,25.42,87,100,1.54,MY,1698692477
175,ilulissat,69.2167,-51.1,4.01,48,0,6.69,GL,1698692477
176,berrouaghia,36.1352,2.9109,15.83,68,100,1.73,DZ,1698692478
177,avarua,-21.2078,-159.775,25.03,73,40,6.17,CK,1698692478
178,palmer,42.1584,-72.3287,10.92,86,100,2.57,US,1698692203
179,nyurba,63.2842,118.3319,-13.56,98,100,1.57,RU,1698692479
180,papao,-17.75,-149.55,27.82,83,16,9.07,PF,1698692479
181,recani,31.2846,-4.2688,25.55,22,83,2.47,MA,1698692479
182,alice springs,-23.7,133.8833,16.75,20,100,2.57,AU,1698692479
183,cockburn town,21.4612,-71.1419,29.98,70,40,2.57,TC,1698692480
184,ihosy,-22.4,46.1167,23.03,69,35,2.86,MG,1698692480
185,caleta de carquin,-11.0925,-77.6267,22.02,76,100,4.98,PE,1698692481
186,kudat,6.8837,116.8477,25.16,100,100,1.03,MY,1698692481
187,st. john's,47.5649,-52.7093,6.49,50,75,7.2,CA,1698692411
188,pisco,-13.7,-76.2167,23.03,64,0,4.63,PE,1698692481
189,kingston,17.997,-76.7936,31.53,75,20,3.6,JM,1698692253
190,simpang,-1.2667,104.0833,24.41,92,96,1.12,ID,1698692482
191,raduzhny,62.0961,77.475,-12.03,96,20,1.76,RU,1698692482
192,touros,-5.1989,-35.4608,27.25,63,4,7.22,BR,1698692465
193,georgetown,5.4112,100.3354,27.96,89,20,2.68,MY,1698692309
194,tangalle,6.024,80.7911,24.09,87,37,1.62,LK,1698692339
195,cooma,-36.2333,149.1333,7.29,66,0,3.74,AU,1698692454
196,roma,43.2128,-75.4557,7.51,92,100,5.14,US,1698692188
197,afaahiti,-17.75,-149.2833,26.93,83,49,7.71,PF,1698692483
198,basse-terre,16.1667,-61.6667,29.77,66,20,6.17,GP,1698692484
199,toliara,-23.35,43.6667,23.5,74,48,6.39,MG,1698692484
200,flying fish cove,-10.4217,105.6791,25.82,88,75,4.63,CX,1698692484
201,alofi,-19.0595,-169.9187,24.94,78,100,4.12,NU,1698692485
202,kupang,-10.1667,123.5833,26.32,83,10,2.06,ID,1698692485
203,ust-tsilma,65.441,52.1498,-5.77,79,94,4.02,RU,1698692485
204,beyneu,45.3167,55.2,9.02,74,1,4.37,KZ,1698692485
205,belmonte,-15.8631,-38.8828,26.44,61,100,4.7,BR,1698692486
206,vilyuchinsk,52.9306,158.4028,0.52,81,74,2.91,RU,1698692486
207,m'sila,35.7058,4.5419,21.76,45,21,3.99,DZ,1698692487
208,conception bay south,47.4999,-52.9981,6.36,52,100,4.96,CA,1698692487
209,mikkeli,61.6886,27.2723,-1.94,93,92,1.03,FI,1698692487
210,salalah,17.0151,54.0924,26.11,71,100,1.92,OM,1698692487
211,tuy hoa,13.0833,109.3,25.07,91,99,3.12,VN,1698692487
212,bonthe,7.5264,-12.505,26.89,80,78,3.23,SL,1698692488
213,pyt-yakh,60.7499,72.8582,-9.08,94,59,2.83,RU,1698692488
214,port alfred,-33.5906,26.891,15.1,87,84,1.34,ZA,1698692488
215,usinsk,65.9939,57.5281,-8.85,81,100,3.13,RU,1698692488
216,dongcun,36.7767,121.1597,17.83,89,0,4.1,CN,1698692489
217,weligama,5.9667,80.4167,24.58,88,98,1.67,LK,1698692489
218,inarajan village,13.2736,144.7484,28.33,90,100,5.05,GU,1698692489
219,la'ie,21.6477,-157.9253,28.01,74,7,2.24,US,1698692489
220,valparaiso,-33.0393,-71.6273,19.13,66,0,6.17,CL,1698692409
221,longyearbyen,78.2186,15.6401,0.91,69,75,4.63,SJ,1698692491
222,lebu,-37.6167,-73.65,11.32,56,56,5.24,CL,1698692492
223,ribeira do pombal,-10.8344,-38.5358,35.57,22,93,4.93,BR,1698692492
224,jamestown,42.097,-79.2353,6.77,93,100,1.34,US,1698692325
225,sastre,-31.7676,-61.8289,14.53,74,100,6.07,AR,1698692492
226,bemidji,47.4736,-94.8803,-1.08,94,100,4.12,US,1698692492
227,nar'yan-mar,67.6713,53.087,-6.61,94,100,6.71,RU,1698692492
228,grajau,-5.8194,-46.1386,39.84,18,52,2.47,BR,1698692465
229,fortuna,40.5982,-124.1573,19.96,52,0,2.57,US,1698692493
230,tisaiyanvilai,8.3333,77.8833,25.28,85,83,5.15,IN,1698692494
231,argo,37.6333,22.7333,20.18,73,0,0.58,GR,1698692494
232,tralee,52.2704,-9.7026,9.14,93,0,1.03,IE,1698692495
233,mahajanga,-15.7167,46.3167,28.01,83,40,3.09,MG,1698692495
234,tocopilla,-22.092,-70.1979,21.03,63,50,4.53,CL,1698692496
235,nadi,-17.8,177.4167,23.0,88,20,1.54,FJ,1698692496
236,yoichi,43.2039,140.7703,8.86,83,62,3.57,JP,1698692496
237,saguenay,48.4168,-71.0657,1.71,90,100,5.14,CA,1698692402
238,machali,-34.1833,-70.6667,12.6,82,100,2.57,CL,1698692463
239,ajaccio,42.0,8.9167,20.03,88,75,1.54,FR,1698692453
240,mount pearl,47.5166,-52.7813,6.03,50,75,7.2,CA,1698692337
241,sterlitamak,53.6246,55.9502,0.23,84,100,4.33,RU,1698692497
242,benguela,-12.5763,13.4055,24.51,81,15,2.72,AO,1698692497
243,juhaynah,26.6732,31.4976,27.18,39,0,3.16,EG,1698692497
244,saint-pierre,-21.3393,55.4781,23.82,78,0,1.54,RE,1698692497
245,konarka,19.9,86.1167,23.22,72,29,1.78,IN,1698692497
246,korla,41.7597,86.1469,13.27,37,7,2.39,CN,1698692498
247,lionel town,17.8101,-77.2406,31.94,61,100,3.32,JM,1698692498
248,union,40.6334,-74.2663,16.95,81,100,4.12,US,1698692498
249,porto novo,6.4965,2.6036,27.9,83,100,2.49,BJ,1698692295
250,el nido,11.1858,119.3956,27.79,77,100,2.65,PH,1698692498
251,pucon,-39.2822,-71.9543,6.05,96,99,0.48,CL,1698692499
252,miramichi,47.0043,-65.4654,-0.08,91,100,1.33,CA,1698692269
253,manokwari,-0.8667,134.0833,25.35,83,100,0.58,ID,1698692499
254,baardheere,2.3446,42.2764,26.17,76,8,1.7,SO,1698692499
255,al khums,32.6486,14.2619,25.8,52,19,6.41,LY,1698692500
256,praia da vitoria,38.7333,-27.0667,19.14,72,20,5.36,PT,1698692501
257,ghat,24.9647,10.1728,27.72,15,0,3.18,LY,1698692501
258,saldanha,-33.0117,17.9442,22.03,47,0,7.73,ZA,1698692501
259,cartagena,10.3997,-75.5144,30.79,74,20,3.6,CO,1698692401
260,waddan,29.1614,16.139,24.29,30,95,3.73,LY,1698692501
261,welver,51.6167,7.9667,13.91,91,100,2.84,DE,1698692502
262,newman,37.3138,-121.0208,20.13,38,10,1.34,US,1698692502
263,codrington,-38.2667,141.9667,9.26,61,51,7.37,AU,1698692502
264,grants,35.1473,-107.8514,5.13,42,0,2.06,US,1698692443
265,wailea,19.8858,-155.123,27.29,83,8,1.87,US,1698692503
266,burutu,5.3509,5.5076,26.16,84,100,2.35,NG,1698692503
267,sisimiut,66.9395,-53.6735,-1.51,66,100,3.96,GL,1698692503
268,abbeville,50.1,1.8333,11.39,96,100,3.5,FR,1698692503
269,goundam,16.4145,-3.6708,33.8,12,30,3.43,ML,1698692504
270,aasiaat,68.7098,-52.8699,-3.59,77,3,8.86,GL,1698692505
271,hadibu,12.65,54.0333,26.78,76,99,3.66,YE,1698692505
272,sierra grande,-41.606,-65.3557,15.08,16,100,7.15,AR,1698692432
273,rock springs,41.5875,-109.2029,3.46,37,0,6.69,US,1698692315
274,nizhneudinsk,54.9076,99.0276,-9.18,68,22,0.23,RU,1698692505
275,callao,-12.0667,-77.15,22.16,73,0,5.14,PE,1698692427
276,awjilah,29.1081,21.2869,23.85,45,100,3.7,LY,1698692506
277,dhidhdhoo,6.8833,73.1,27.2,74,100,1.0,MV,1698692506
278,tshela,-4.9833,12.9333,24.31,97,19,1.41,CD,1698692506
279,yanam,16.7333,82.2167,24.25,77,32,1.8,IN,1698692507
280,mount gambier,-37.8333,140.7667,8.41,63,53,3.9,AU,1698692507
281,san patricio,28.017,-97.5169,10.94,64,96,9.29,US,1698692507
282,tadine,-21.55,167.8833,19.7,63,55,3.38,NC,1698692507
283,dalhart,36.0595,-102.5133,6.93,20,0,3.74,US,1698692507
284,yulinshi,38.2906,109.7494,12.45,31,10,2.36,CN,1698692508
285,bellview,30.4616,-87.315,29.59,69,40,2.57,US,1698692508
286,nogliki,51.8333,143.1667,2.41,71,98,1.34,RU,1698692509
287,talara,-4.5772,-81.2719,28.42,57,0,8.23,PE,1698692509
288,medicine hat,50.0501,-110.6683,-1.55,67,75,3.6,CA,1698692401
289,borgarnes,64.5383,-21.9206,3.03,81,17,1.98,IS,1698692509
290,berriane,32.8265,3.7669,29.45,13,100,4.82,DZ,1698692510
291,shimoda,34.6667,138.95,16.17,71,100,1.43,JP,1698692510
292,kimbe,-5.5502,150.1429,23.8,97,100,1.62,PG,1698692510
293,gokceada,40.2011,25.909,19.86,77,0,4.82,TR,1698692510
294,gurupi,-11.7292,-49.0686,40.77,14,13,3.18,BR,1698692490
295,harstad,68.799,16.5293,0.09,96,55,6.71,NO,1698692511
296,nicoya,10.1483,-85.452,22.7,98,100,0.75,CR,1698692363
297,ndioum,16.5129,-14.6471,36.94,22,17,2.28,SN,1698692511
298,mumford,5.2618,-0.759,27.08,85,5,3.5,GH,1698692511
299,ad dabbah,18.05,30.95,32.28,18,21,6.07,SD,1698692512
300,constantia,44.1833,28.65,14.38,72,0,4.15,RO,1698692512
301,sanctuary point,-35.1114,150.629,18.88,51,5,2.67,AU,1698692512
302,saint-leu,-21.15,55.2833,23.48,91,19,1.45,RE,1698692512
303,manakara,-22.1333,48.0167,24.47,84,22,4.45,MG,1698692513
304,ust'-kulom,61.6864,53.6902,-8.58,99,96,0.74,RU,1698692513
305,shilin,24.8188,103.3324,12.45,92,100,0.83,CN,1698692513
306,recreo,-29.2818,-65.061,22.27,48,100,5.14,AR,1698692513
307,mendi,-6.1761,143.6513,12.32,98,100,1.57,PG,1698692513
308,al qusayr,34.5091,36.5798,23.05,47,100,0.79,SY,1698692514
309,puerto baquerizo moreno,-0.9,-89.6,27.55,65,75,6.17,EC,1698692514
310,kouango,4.9934,19.9619,24.89,82,92,0.54,CF,1698692514
311,ataq,14.5377,46.8319,21.3,69,100,4.88,YE,1698692515
312,fort st. john,56.2499,-120.8529,1.94,60,75,4.63,CA,1698692445
313,malaga,36.7202,-4.4203,20.41,53,20,5.14,ES,1698692515
314,oranjemund,-28.55,16.4333,16.55,65,0,6.8,NA,1698692515
315,kirakira,-10.4544,161.9205,26.29,86,100,4.17,SB,1698692516
316,tejen,37.3834,60.5054,22.85,44,100,7.97,TM,1698692516
317,aparecida do taboado,-20.0867,-51.0936,32.89,46,43,4.24,BR,1698692516
318,iguape,-24.7081,-47.5553,24.16,90,100,1.49,BR,1698692516
319,san gabriel,34.0961,-118.1058,25.87,16,0,1.54,US,1698692341
320,moriki,12.8741,6.4875,30.27,19,14,3.22,NG,1698692517
321,greymouth,-42.4667,171.2,11.33,78,100,1.71,NZ,1698692517
322,cidreira,-30.1811,-50.2056,19.9,97,100,3.84,BR,1698692517
323,paramonga,-10.6667,-77.8333,21.86,76,100,5.15,PE,1698692518
324,callaway,30.153,-85.5699,28.84,73,1,1.79,US,1698692518
325,tailai,46.3833,123.4,2.9,36,100,4.28,CN,1698692518
326,makhambet,47.6667,51.5833,6.56,71,9,1.7,KZ,1698692518
327,paphos,34.7667,32.4167,22.88,60,0,1.54,CY,1698692518
328,katoomba,-33.7198,150.3074,20.98,40,14,4.72,AU,1698692519
329,canutama,-6.5339,-64.3831,38.44,27,99,1.31,BR,1698692519
330,palikir - national government center,6.9248,158.1611,28.28,78,100,6.68,FM,1698692519
331,hammerfest,70.6634,23.6821,0.25,86,40,3.6,NO,1698692519
332,menaka,15.9182,2.4022,33.04,8,0,4.12,ML,1698692519
333,fort bragg,35.139,-79.006,29.91,45,0,5.14,US,1698692519
334,el abiodh sidi cheikh,32.893,0.5484,21.34,32,41,1.78,DZ,1698692520
335,cannonvale,-20.2833,148.7,21.66,70,100,2.41,AU,1698692520
336,nabire,-3.3667,135.4833,23.66,93,100,1.1,ID,1698692520
337,harper,4.375,-7.7169,26.39,83,10,2.94,LR,1698692520
338,ust-nera,64.5667,143.2,-18.13,99,87,1.81,RU,1698692520
339,atbasar,51.8,68.3333,3.14,87,100,6.22,KZ,1698692521
340,san salvador de jujuy,-24.1946,-65.2971,30.74,47,79,5.75,AR,1698692521
341,filingue,14.3521,3.3168,33.87,9,4,3.0,NE,1698692521
342,vilyuysk,63.7553,121.6247,-15.0,96,98,1.79,RU,1698692521
343,sao raimundo nonato,-9.0153,-42.6994,37.95,15,52,3.09,BR,1698692281
344,xichang,27.8964,102.2634,12.57,83,68,0.68,CN,1698692522
345,colonia,50.9333,6.95,13.75,91,20,4.12,DE,1698692231
346,carbonear,47.7332,-53.2148,6.75,47,100,4.78,CA,1698692522
347,konokovo,44.8616,41.3266,13.82,64,3,3.66,RU,1698692522
348,bodo,67.28,14.405,-2.35,84,0,5.66,NO,1698692523
349,coyhaique,-45.5752,-72.0662,10.97,30,40,2.57,CL,1698692523
350,coahuayana de hidalgo,18.7,-103.6583,30.86,66,42,2.51,MX,1698692523
351,ulanhot,46.0833,122.0833,2.09,44,100,4.38,CN,1698692524
352,okhotsk,59.3833,143.3,-6.66,87,100,2.04,RU,1698692524
353,barcelos,41.5388,-8.6151,17.08,88,4,2.34,PT,1698692257
354,gizo,-8.103,156.8419,27.01,81,100,2.11,SB,1698692524
355,extrema,-22.8547,-46.3183,23.74,85,66,0.26,BR,1698692492
356,kidal,18.4411,1.4078,30.95,9,0,5.25,ML,1698692524
357,owando,-0.4819,15.8999,25.76,76,83,1.15,CG,1698692524
358,ligny-en-barrois,48.6886,5.3254,12.66,93,100,7.69,FR,1698692525
359,kone,-21.0595,164.8658,20.1,73,99,1.94,NC,1698692525
360,vernon,50.2581,-119.2691,4.05,55,59,1.03,CA,1698692525
361,usogorsk,63.4106,48.6872,-3.52,83,100,1.25,RU,1698692525
362,bogande,12.9714,-0.1436,33.05,12,5,4.38,BF,1698692525
363,riberalta,-10.9833,-66.1,32.11,62,75,4.12,BO,1698692526
364,nova sintra,14.8667,-24.7167,23.55,63,43,0.84,CV,1698692526
365,ambalangoda,6.2355,80.0538,25.46,85,95,0.76,LK,1698692526
366,kulhudhuffushi,6.6221,73.07,27.14,74,100,1.34,MV,1698692529
367,san-pedro,4.7485,-6.6363,26.31,84,0,2.74,CI,1698692530
368,achinsk,56.2694,90.4993,-5.72,86,100,2.24,RU,1698692530
369,island harbour,50.724,-1.2758,9.99,91,100,3.48,GB,1698692530
370,qamdo,31.1667,97.2333,-3.81,71,97,1.66,CN,1698692530
371,holualoa,19.6228,-155.9522,27.7,68,0,0.89,US,1698692530
372,kerouane,9.2667,-9.0167,26.79,62,97,0.51,GN,1698692531
373,mwinilunga,-11.7358,24.4293,17.9,87,81,2.17,ZM,1698692531
374,ancud,-41.8697,-73.8203,8.73,58,6,5.32,CL,1698692446
375,sandnessjoen,66.0217,12.6316,-1.94,86,20,5.14,NO,1698692532
376,almunecar,36.7339,-3.6907,19.82,47,92,5.7,ES,1698692532
377,molde,62.7375,7.1591,-1.09,69,0,3.6,NO,1698692490
378,el sauzal de rodriguez,31.9,-116.6833,23.01,24,0,0.59,MX,1698692532
379,turpan,42.9333,89.1667,14.42,37,13,0.45,CN,1698692533
380,estevan,49.1334,-102.9842,-4.81,68,20,15.43,CA,1698692319
381,parham,17.0968,-61.7705,30.58,74,75,4.12,AG,1698692533
382,bamboo flat,11.7,92.7167,27.69,79,95,2.7,IN,1698692533
383,amurzet,47.6967,131.0981,1.15,82,100,1.39,RU,1698692534
384,shiyan,32.6475,110.7781,15.88,66,5,2.16,CN,1698692534
385,ulimang,7.6242,134.6421,27.78,78,39,3.18,PW,1698692534
386,shenkursk,62.1091,42.896,-4.12,74,100,1.58,RU,1698692535
387,cromer,52.9312,1.2989,11.0,93,100,2.24,GB,1698692535
388,beidaihehaibin,39.8222,119.5181,13.38,79,12,2.34,CN,1698692535
389,nuuk,64.1835,-51.7216,8.34,31,75,13.38,GL,1698692536
390,northam,51.0333,-4.2167,12.03,89,21,4.11,GB,1698692536
391,baruun-urt,46.6806,113.2792,-5.93,87,26,2.78,MN,1698692536
392,muborak,39.2553,65.1528,21.01,40,49,3.44,UZ,1698692536
393,rawson,-43.3002,-65.1023,10.62,53,68,7.52,AR,1698692537
394,ampara,7.2833,81.6667,24.65,87,19,1.23,LK,1698692338
395,kisesa,-3.0833,34.15,25.54,45,82,2.66,TZ,1698692537
396,constitucion,-35.3333,-72.4167,13.22,55,99,7.53,CL,1698692435
397,porto murtinho,-21.6989,-57.8825,41.27,22,100,4.63,BR,1698692537
398,cafayate,-26.073,-65.9761,23.94,47,0,5.97,AR,1698692446
399,rio gallegos,-51.6226,-69.2181,6.03,39,75,5.14,AR,1698692505
400,mandvi,22.8333,69.3667,29.0,40,0,4.76,IN,1698692538
401,ta`u,-14.2336,-169.5144,26.86,82,47,12.03,AS,1698692539
402,port sudan,19.6175,37.2164,28.98,70,81,3.44,SD,1698692539
403,vila velha,-20.3297,-40.2925,30.97,75,0,8.23,BR,1698692539
404,moyynkum,44.2914,72.9469,18.3,43,100,3.52,KZ,1698692539
405,new norfolk,-42.7826,147.0587,8.17,90,9,2.93,AU,1698692540
406,port moresby,-9.4431,147.1797,23.29,91,100,3.23,PG,1698692540
407,labrador city,52.9463,-66.9114,-3.05,46,75,3.6,CA,1698692420
408,kurumkan,54.3,110.3,-8.26,58,1,1.34,RU,1698692541
409,san vicente de canete,-13.0751,-76.3835,22.86,71,95,3.82,PE,1698692542
410,anapa,44.8908,37.3239,10.19,93,0,3.0,RU,1698692542
411,aykhal,66.0,111.5,-20.04,97,100,3.8,RU,1698692542
412,boa vista,2.8197,-60.6733,35.99,36,40,2.57,BR,1698692543
413,fernley,39.608,-119.2518,11.82,17,0,1.34,US,1698692543
414,kailua-kona,19.6406,-155.9956,29.22,67,0,1.54,US,1698692375
415,magong,23.5654,119.5863,24.45,77,100,11.71,TW,1698692543
416,hotan,37.0997,79.9269,14.91,18,0,1.42,CN,1698692544
417,chilecito,-29.1619,-67.4974,24.48,25,20,9.17,AR,1698692285
418,mocimboa,-11.3167,40.35,24.7,86,95,1.63,MZ,1698692544
419,general acha,-37.377,-64.6043,17.59,18,13,4.88,AR,1698692544
420,bayanhongor,46.7167,100.1167,-2.88,74,100,1.37,MN,1698692545
421,tazovsky,67.4667,78.7,-16.94,95,21,1.97,RU,1698692545
422,tambov,52.7317,41.4339,8.81,85,22,8.49,RU,1698692545
423,alpine,32.835,-116.7664,25.39,13,0,2.24,US,1698692546
424,bizhbulyak,53.6967,54.2642,-0.83,87,100,5.1,RU,1698692546
425,thanh hoa,19.8,105.7667,22.97,89,100,1.79,VN,1698692546
426,mahibadhoo,3.7833,72.9667,28.01,72,73,3.93,MV,1698692546
427,colesberg,-30.72,25.0972,10.87,64,100,6.51,ZA,1698692547
428,el calafate,-50.3408,-72.2768,4.63,65,41,1.22,AR,1698692547
429,farasan,16.7022,42.1183,29.97,68,17,2.25,SA,1698692547
430,mana,5.6592,-53.7767,29.86,69,5,5.66,GF,1698692547
431,daman,20.4167,72.85,26.13,54,4,1.57,IN,1698692547
432,weno,7.4515,151.8468,28.36,78,98,5.32,FM,1698692548
433,haapajarvi,63.75,25.3333,-8.64,98,45,0.29,FI,1698692548
434,byron bay,-28.65,153.6167,17.1,84,4,6.34,AU,1698692548
435,guerrero negro,27.9769,-114.0611,25.26,32,0,2.54,MX,1698692548
436,wolmaransstad,-27.1974,25.9831,9.16,79,100,8.72,ZA,1698692548
437,yanbu,24.0891,38.0637,29.02,74,0,4.12,SA,1698692486
438,kralendijk,12.15,-68.2667,29.13,70,100,2.74,BQ,1698692549
439,zouerate,22.7187,-12.4521,31.02,12,0,2.04,MR,1698692549
440,gorontalo,0.5412,123.0595,23.6,91,55,0.87,ID,1698692549
441,tangwani,28.2787,68.9972,26.2,26,40,1.29,PK,1698692550
442,ma'rib,15.4591,45.3253,27.46,34,31,2.4,YE,1698692550
443,tarko-sale,64.9225,77.785,-13.38,94,9,1.61,RU,1698692550
444,swift current,50.2834,-107.8014,-6.55,68,20,8.75,CA,1698692461
445,slany,50.2305,14.0869,14.12,89,0,2.06,CZ,1698692551
446,kongolo,-5.3833,27.0,21.06,93,100,0.74,CD,1698692551
447,kimberley,-28.7323,24.7623,10.83,66,100,9.77,ZA,1698692525
448,khovd,48.0056,91.6419,4.6,56,100,2.78,MN,1698692551
449,aki,33.5,133.9,14.97,73,29,2.61,JP,1698692552
450,carutapera,-1.195,-46.02,29.67,62,2,4.54,BR,1698692552
451,berezovo,63.9381,65.0419,-10.25,92,100,2.79,RU,1698692553
452,bang saphan,11.2126,99.5117,25.75,88,86,1.76,TH,1698692553
453,christchurch,-43.5333,172.6333,13.28,92,100,8.75,NZ,1698692349
454,linfen,36.0889,111.5189,17.27,44,8,1.32,CN,1698692277
455,kattivakkam,13.2167,80.3167,28.37,82,100,4.2,IN,1698692554
456,pokrovsk,48.282,37.1758,11.12,69,100,4.15,UA,1698692554
457,stony plain,53.5334,-114.0021,0.24,70,40,4.12,CA,1698692411
458,nguigmi,14.2495,13.1092,30.73,18,10,5.74,NE,1698692554
459,anacapri,40.5558,14.2136,23.32,61,100,12.19,IT,1698692554
460,knyaze-volkonskoye,48.4642,135.4567,1.67,61,28,4.02,RU,1698692555
461,neue neustadt,52.15,11.6333,12.54,84,100,2.72,DE,1698692555
462,mount pleasant,32.7941,-79.8626,29.99,65,0,3.09,US,1698692349
463,florenville,49.6998,5.3074,12.29,97,100,5.67,BE,1698692556
464,vila franca do campo,37.7167,-25.4333,18.23,99,48,3.13,PT,1698692556
465,polyarnyy,69.1989,33.4478,-5.2,89,100,7.93,RU,1698692341
466,kovalam,8.3667,76.9967,28.05,83,75,0.0,IN,1698692557
467,strelka,58.0728,93.0344,-7.55,68,0,2.74,RU,1698692557
468,kosh-agach,50.0,88.6667,1.84,59,100,0.45,RU,1698692558
469,basoko,1.2391,23.616,26.04,74,61,0.81,CD,1698692558
470,mongo,12.1844,18.693,32.6,32,60,1.97,TD,1698692558
471,shitanjing,39.2342,106.3439,12.36,24,0,4.03,CN,1698692558
472,shantobe,52.4581,68.1839,1.37,96,100,5.55,KZ,1698692558
473,shushtar,32.0455,48.8567,28.65,23,100,1.6,IR,1698692559
474,bada,51.392,109.8717,-7.55,60,12,1.23,RU,1698692559
475,lucapa,-8.4192,20.7447,20.68,90,10,2.97,AO,1698692559
476,auerbach,50.5167,12.4,13.02,76,100,3.17,DE,1698692559
477,portland,45.5234,-122.6762,13.78,48,5,4.47,US,1698692447
478,makinsk,52.6292,70.4169,2.02,97,100,4.97,KZ,1698692560
479,saint-philippe,-21.3585,55.7679,23.77,83,17,4.37,RE,1698692560
480,kavaratti,10.5669,72.642,27.98,70,99,0.71,IN,1698692560
481,shingu,33.7333,135.9833,15.5,75,96,1.5,JP,1698692413
482,priozersk,61.0393,30.1291,2.84,85,100,0.68,RU,1698692560
483,huarmey,-10.0681,-78.1522,22.94,73,91,5.67,PE,1698692561
484,karasburg,-28.0167,18.75,19.71,12,29,5.13,NA,1698692561
485,inhambane,-23.865,35.3833,20.0,77,75,5.36,MZ,1698692561
486,soria,41.6667,-2.6667,7.84,100,50,6.98,ES,1698692518
487,ternate,0.8,127.4,26.6,77,41,0.71,ID,1698692562
488,aleg,17.0481,-13.9209,35.37,17,38,3.65,MR,1698692562
489,kargasok,59.0556,80.8572,-10.58,93,10,3.58,RU,1698692562
490,coulommiers,48.8145,3.085,11.32,88,100,6.87,FR,1698692562
491,yerofey pavlovich,53.9667,121.9667,-8.72,60,100,0.66,RU,1698692562
492,tofol,5.3248,163.0078,28.46,74,100,5.1,FM,1698692563
493,castillos,-34.1667,-53.8333,13.87,91,100,5.29,UY,1698692563
494,kabalo,-6.05,26.9167,21.48,93,100,2.23,CD,1698692563
495,maluso,6.543,121.8753,25.05,82,89,0.87,PH,1698692563
496,zalari,53.5584,102.5065,-6.0,70,84,0.92,RU,1698692564
497,kani keli,-12.9536,45.1033,27.59,81,64,2.71,YT,1698692564
498,huanuco,-9.9329,-76.2415,26.34,53,70,4.52,PE,1698692564
499,ardakan,32.31,54.0175,22.15,25,100,2.01,IR,1698692564
500,chibougamau,49.9168,-74.3659,-2.21,86,100,3.09,CA,1698692564
501,iwanai,42.9744,140.5089,5.99,93,55,1.84,JP,1698692564
502,farsala,39.2947,22.3847,20.74,69,0,1.76,GR,1698692565
503,tara,56.8944,74.371,-6.12,81,97,4.51,RU,1698692565
504,fujin,47.26,132.0322,1.59,80,88,1.13,CN,1698692565
505,sabha,27.0377,14.4283,25.24,25,4,3.93,LY,1698692565
506,grootfontein,-19.5667,18.1167,26.76,18,4,1.54,NA,1698692565
507,n'zeto,-7.2312,12.8666,25.8,86,19,3.95,AO,1698692566
508,rzhaksa,52.1338,42.0264,10.13,75,100,8.18,RU,1698692566
509,kiruna,67.8557,20.2251,-16.49,85,0,4.12,SE,1698692566
510,alva,56.1528,-3.8051,7.37,70,100,4.47,GB,1698692566
511,tolanaro,-25.0319,46.9987,25.04,83,75,4.12,MG,1698692566
512,kampot,10.6167,104.1833,25.03,87,100,1.66,KH,1698692567
513,pilcaya,18.7333,-99.6833,25.3,63,12,1.86,MX,1698692567
514,dubbo,-32.25,148.6167,19.07,39,100,3.09,AU,1698692461
515,gadzhiyevo,69.2551,33.3362,-5.68,90,100,8.2,RU,1698692567
516,kerman,30.2832,57.0788,17.92,34,0,2.06,IR,1698692567
517,liwale,-9.7667,37.9333,23.49,65,100,2.32,TZ,1698692568
518,majene,-3.5403,118.9707,26.03,79,85,1.13,ID,1698692568
519,nagqu,31.5,92.0,-6.31,89,100,1.71,CN,1698692568
520,dongxing,45.3667,130.8,2.99,58,100,0.73,CN,1698692568
521,nova xavantina,-14.6667,-52.35,41.21,17,17,3.64,BR,1698692455
522,queenstown,-31.8976,26.8753,7.19,83,69,4.91,ZA,1698692568
523,rongelap,11.1635,166.8941,28.41,79,100,10.48,MH,1698692569
524,bracebridge,45.0334,-79.3163,6.27,49,100,6.17,CA,1698692446
525,cassino,41.4876,13.8315,23.07,55,100,1.34,IT,1698692569
526,tsiombe,-25.3,45.4833,22.85,78,100,2.95,MG,1698692569
527,rikaze,29.25,88.8833,3.23,49,5,1.42,CN,1698692569
528,bandundu,-3.3167,17.3667,25.43,80,43,1.09,CD,1698692570
529,sao gabriel da cachoeira,-0.1303,-67.0892,33.89,59,40,1.54,BR,1698692426
530,yamoto,38.4274,141.2149,11.28,85,0,1.86,JP,1698692570
531,tatarsk,55.219,75.9828,-4.45,92,99,5.77,RU,1698692570
532,eenhana,-17.4667,16.3333,27.42,11,0,3.4,NA,1698692570
533,nouadhibou,20.931,-17.0347,21.99,88,5,6.69,MR,1698692571
534,karema,-6.8205,30.4389,24.99,80,67,2.69,TZ,1698692571
535,robore,-18.3333,-59.75,34.05,52,75,9.26,BO,1698692571
536,fort irwin,35.2627,-116.6848,15.9,13,0,6.69,US,1698692571
537,armacao de buzios,-22.7469,-41.8817,31.09,86,100,3.95,BR,1698692399
538,mosjoen,65.836,13.1908,-1.94,86,75,1.54,NO,1698692571
539,uturoa,-16.7333,-151.4333,26.08,80,17,8.15,PF,1698692572
540,masumbwe,-3.6333,32.1833,22.68,63,23,2.28,TZ,1698692572
541,illapel,-31.6308,-71.1653,22.27,43,100,3.58,CL,1698692572
542,chipinge,-20.1883,32.6236,14.4,84,100,2.84,ZW,1698692572
543,taoudenni,22.6783,-3.9836,33.55,9,68,1.79,ML,1698692572
544,khandyga,62.6667,135.6,-9.43,96,100,2.19,RU,1698692573
545,glace bay,46.1969,-59.957,4.01,89,100,1.34,CA,1698692573
546,bamiantong,44.9333,130.5333,3.73,78,100,1.41,CN,1698692573
547,myshkin,57.7897,38.4545,-2.17,98,100,1.77,RU,1698692573
548,qarazhal,48.0078,70.7903,9.11,81,100,6.17,KZ,1698692573
549,san agustin de valle fertil,-30.6335,-67.4682,24.37,22,0,7.76,AR,1698692574
550,brookings,44.3114,-96.7984,4.47,53,0,6.69,US,1698692347
551,baganga,7.5739,126.56,25.01,86,35,1.71,PH,1698692574
552,morehead city,34.7229,-76.726,28.03,79,0,7.72,US,1698692405
553,stijena,44.9353,16.0172,14.03,65,100,4.31,BA,1698692574
554,lorengau,-2.0226,147.2712,25.63,85,100,1.62,PG,1698692574
555,den burg,53.0542,4.7972,12.2,92,100,3.09,NL,1698692574
556,kas,36.2018,29.6377,21.72,64,100,1.0,TR,1698692574
557,nova gradiska,45.255,17.3831,14.94,54,100,1.8,HR,1698692575
558,muli,2.9167,73.5667,27.81,74,37,3.76,MV,1698692575
559,happy valley-goose bay,53.3168,-60.3315,2.17,41,75,8.23,CA,1698692575
560,okha,53.5739,142.9478,4.05,88,100,6.39,RU,1698692575
561,colchani,-20.3,-66.9333,14.99,8,7,5.54,BO,1698692575
562,arno,60.1167,18.6333,3.77,84,100,7.02,SE,1698692575
563,puerto santander,8.3636,-72.4063,33.67,54,99,2.37,CO,1698692576
564,bridgewater,44.3835,-64.5155,6.79,97,100,4.12,CA,1698692522
